[{
  "title": "Krnjevo - BAROVO winery and vineyards",
  "categoryName": "Winery",
  "address": "109 1437, North Macedonia",
  "neighborhood": null,
  "street": "109 1437",
  "city": null,
  "postalCode": null,
  "state": null,
  "countryCode": "MK",
  "website": "https://tikves.com.mk/en/domaine-barovo/",
  "phone": null,
  "phoneUnformatted": null,
  "location": {
    "lat": 41.3153854,
    "lng": 22.1279782
  },
  "plusCode": "848H+55 Krnjevo, North Macedonia"
},
  {
    "title": "Family winery \"Micevi\"",
    "categoryName": "Winery",
    "address": "Braka Miladinovi 55, Negotino 1440, North Macedonia",
    "neighborhood": null,
    "street": "Braka Miladinovi 55",
    "city": "Negotino",
    "postalCode": "1440",
    "state": null,
    "countryCode": "MK",
    "website": null,
    "phone": "+389 70 916 794",
    "phoneUnformatted": "+38970916794",
    "location": {
      "lat": 41.4769755,
      "lng": 22.0890711
    },
    "plusCode": "F3GQ+QJ Negotino, North Macedonia"
  },
  {
    "title": "Kralska Vinarija \"Kralica Marija\"",
    "categoryName": "Winery",
    "address": "Marshal Tito 63, 1442, North Macedonia",
    "neighborhood": null,
    "street": "Marshal Tito 63",
    "city": null,
    "postalCode": "1442",
    "state": null,
    "countryCode": "MK",
    "website": "http://www.wineryqueenmaria.com/",
    "phone": "+389 43 446 500",
    "phoneUnformatted": "+38943446500",
    "location": {
      "lat": 41.41392,
      "lng": 22.233563
    },
    "plusCode": "C67M+HC Demir Kapija, North Macedonia"
  },
  {
    "title": "Winery \"Kitvin\"",
    "categoryName": "Winery",
    "address": "MK, R1103, Vozartsi 1424, North Macedonia",
    "neighborhood": null,
    "street": "MK, R1103",
    "city": "Vozartsi",
    "postalCode": "1424",
    "state": null,
    "countryCode": "MK",
    "website": null,
    "phone": null,
    "phoneUnformatted": null,
    "location": {
      "lat": 41.4342679,
      "lng": 21.924049
    },
    "plusCode": "CWMF+PJ Vozartsi, North Macedonia"
  },
  {
    "title": "BOVIN WINERY",
    "categoryName": "Winery",
    "address": "Ulica 29 Noemvri br, Negotino 1440, North Macedonia",
    "neighborhood": null,
    "street": "Ulica 29 Noemvri br",
    "city": "Negotino",
    "postalCode": "1440",
    "state": null,
    "countryCode": "MK",
    "website": "http://bovin.mk/",
    "phone": "+389 43 371 433",
    "phoneUnformatted": "+38943371433",
    "location": {
      "lat": 41.4890625,
      "lng": 22.0885625
    },
    "plusCode": "F3QQ+JC Negotino, North Macedonia"
  },
  {
    "title": "GD Tikves Winery",
    "categoryName": "Winery",
    "address": "Ul. Kamendol - Trstenik S MK, Trstenik 1422, North Macedonia",
    "neighborhood": null,
    "street": "Ul. Kamendol - Trstenik S MK",
    "city": "Trstenik",
    "postalCode": "1422",
    "state": null,
    "countryCode": "MK",
    "website": null,
    "phone": "+389 43 415 916",
    "phoneUnformatted": "+38943415916",
    "location": {
      "lat": 41.475839,
      "lng": 21.9211189
    },
    "plusCode": "FWGC+8C Trstenik, North Macedonia"
  },
  {
    "title": "Vinarija \"Vardar\"",
    "categoryName": "Winery",
    "address": "C2Q2+CHG, Kavadarci, North Macedonia",
    "neighborhood": null,
    "street": "C2Q2+CHG",
    "city": "Kavadarci",
    "postalCode": null,
    "state": null,
    "countryCode": "MK",
    "website": null,
    "phone": null,
    "phoneUnformatted": null,
    "location": {
      "lat": 41.4385582,
      "lng": 22.0014642
    },
    "plusCode": null
  },
  {
    "title": "Vinarija \"Povardarie Anevski\"",
    "categoryName": "Winery",
    "address": "F29M+M4Q, Marena, North Macedonia",
    "neighborhood": null,
    "street": "F29M+M4Q",
    "city": "Marena",
    "postalCode": null,
    "state": null,
    "countryCode": "MK",
    "website": "http://www.acpwinery.com/",
    "phone": "+389 43 445 455",
    "phoneUnformatted": "+38943445455",
    "location": {
      "lat": 41.4692103,
      "lng": 22.0328551
    },
    "plusCode": null
  },
  {
    "title": "Winery \"Ilijevi\"",
    "categoryName": "Winery",
    "address": "C2MH+X8J, Kavadarci, North Macedonia",
    "neighborhood": null,
    "street": "C2MH+X8J",
    "city": "Kavadarci",
    "postalCode": null,
    "state": null,
    "countryCode": "MK",
    "website": null,
    "phone": null,
    "phoneUnformatted": null,
    "location": {
      "lat": 41.4349507,
      "lng": 22.0282654
    },
    "plusCode": null
  },
  {
    "title": "MILEV Winery",
    "categoryName": "Winery",
    "address": "Ul. Kamendol - Trstenik S, Trstenik 1422, North Macedonia",
    "neighborhood": null,
    "street": "Ul. Kamendol - Trstenik S",
    "city": "Trstenik",
    "postalCode": "1422",
    "state": null,
    "countryCode": "MK",
    "website": null,
    "phone": null,
    "phoneUnformatted": null,
    "location": {
      "lat": 41.4758331,
      "lng": 21.9211223
    },
    "plusCode": "FWGC+8C Trstenik, North Macedonia"
  },
  {
    "title": "MG-Winery",
    "categoryName": "Winery",
    "address": "Industriska 2, Kavadarci 1430, North Macedonia",
    "neighborhood": null,
    "street": "Industriska 2",
    "city": "Kavadarci",
    "postalCode": "1430",
    "state": null,
    "countryCode": "MK",
    "website": null,
    "phone": "+389 70 253 465",
    "phoneUnformatted": "+38970253465",
    "location": {
      "lat": 41.442416,
      "lng": 21.9999796
    },
    "plusCode": "CXRX+XX Kavadarci, North Macedonia"
  },
  {
    "title": "Traikovsky Wines & Spirits",
    "categoryName": "Winery",
    "address": "109, Krnjevo, North Macedonia",
    "neighborhood": null,
    "street": "109",
    "city": "Krnjevo",
    "postalCode": null,
    "state": null,
    "countryCode": "MK",
    "website": "http://www.traikovsky.com/",
    "phone": "+389 43 370 287",
    "phoneUnformatted": "+38943370287",
    "location": {
      "lat": 41.3069414,
      "lng": 22.1272239
    },
    "plusCode": "844G+QV Krnjevo, North Macedonia"
  },
  {
    "title": "Anevski Winery",
    "categoryName": "Winery",
    "address": "Q53C+VH7, Shtip, North Macedonia",
    "neighborhood": null,
    "street": "Q53C+VH7",
    "city": "Shtip",
    "postalCode": null,
    "state": null,
    "countryCode": "MK",
    "website": "http://www.acpwinery.com/",
    "phone": "+389 70 394 157",
    "phoneUnformatted": "+38970394157",
    "location": {
      "lat": 41.7546567,
      "lng": 22.1714311
    },
    "plusCode": null
  },
  {
    "title": "Izvorno",
    "categoryName": "Winery",
    "address": "M5, North Macedonia",
    "neighborhood": null,
    "street": "M5",
    "city": null,
    "postalCode": null,
    "state": null,
    "countryCode": "MK",
    "website": null,
    "phone": "+389 77 901 169",
    "phoneUnformatted": "+38977901169",
    "location": {
      "lat": 41.6038007,
      "lng": 21.6928107
    },
    "plusCode": "JM3V+G4 Dolno Vranovtsi, North Macedonia"
  },
  {
    "title": "Winery \"Movino\"",
    "categoryName": "Winery",
    "address": "GXC7+HVF, MK, Industriska BB, Rosoman 1422, North Macedonia",
    "neighborhood": null,
    "street": "GXC7+HVF, MK, Industriska BB",
    "city": "Rosoman",
    "postalCode": "1422",
    "state": null,
    "countryCode": "MK",
    "website": "http://www.movino.mk/",
    "phone": "+389 43 400 731",
    "phoneUnformatted": "+38943400731",
    "location": {
      "lat": 41.5214442,
      "lng": 21.9646746
    },
    "plusCode": null
  },
  {
    "title": "Ezimit",
    "categoryName": "Winery",
    "address": "Ul. Bregalnicka 64a, Shtip, North Macedonia",
    "neighborhood": null,
    "street": "Ul. Bregalnicka 64a",
    "city": "Shtip",
    "postalCode": null,
    "state": null,
    "countryCode": "MK",
    "website": "http://www.ezimit.mk/",
    "phone": "+389 32 387 809",
    "phoneUnformatted": "+38932387809",
    "location": {
      "lat": 41.7755648,
      "lng": 22.18112
    },
    "plusCode": "Q5GJ+6C Shtip, North Macedonia"
  },
  {
    "title": "Angelovski Villa",
    "categoryName": "Winery",
    "address": null,
    "neighborhood": null,
    "street": null,
    "city": null,
    "postalCode": null,
    "state": null,
    "countryCode": null,
    "website": null,
    "phone": "+389 70 389 484",
    "phoneUnformatted": "+38970389484",
    "location": {
      "lat": 41.6137143,
      "lng": 21.7432336
    },
    "plusCode": null
  },
  {
    "title": "Brzanov",
    "categoryName": "Winery",
    "address": "ul 1 br. 4 MK, Trubarevo 1047, North Macedonia",
    "neighborhood": null,
    "street": "ul 1 br. 4 MK",
    "city": "Trubarevo",
    "postalCode": "1047",
    "state": null,
    "countryCode": "MK",
    "website": "http://www.brzanov.mk/",
    "phone": "+389 75 406 116",
    "phoneUnformatted": "+38975406116",
    "location": {
      "lat": 41.9856456,
      "lng": 21.5171839
    },
    "plusCode": "XGP8+7V Trubarevo, North Macedonia"
  },
  {
    "title": "Winery \"Kartal\"",
    "categoryName": "Winery",
    "address": "ul.1519 br.7 Skopje MK, 1000, North Macedonia",
    "neighborhood": "Kisela Voda",
    "street": "ul.1519 br.7 Skopje MK",
    "city": "Skopje",
    "postalCode": "1000",
    "state": null,
    "countryCode": "MK",
    "website": "http://www.kartal.com.mk/",
    "phone": "+389 70 242 419",
    "phoneUnformatted": "+38970242419",
    "location": {
      "lat": 41.962434,
      "lng": 21.4763996
    },
    "plusCode": "XF6G+XH Skopje, North Macedonia"
  },
  {
    "title": "Bela Voda - Tikves Winery Vineyadrs",
    "categoryName": "Vineyard",
    "address": "QQXC+GVP, Sojaklari, North Macedonia",
    "neighborhood": null,
    "street": "QQXC+GVP",
    "city": "Sojaklari",
    "postalCode": null,
    "state": null,
    "countryCode": "MK",
    "website": "http://www.tikves.com.mk/",
    "phone": null,
    "phoneUnformatted": null,
    "location": {
      "lat": 41.7988315,
      "lng": 21.7721987
    },
    "plusCode": null
  },
  {
    "title": "Winery \"Kamnik\"",
    "categoryName": "Winery",
    "address": "Kamnik bb Skopje MK, 1000, North Macedonia",
    "neighborhood": null,
    "street": "Kamnik bb Skopje MK",
    "city": null,
    "postalCode": "1000",
    "state": null,
    "countryCode": "MK",
    "website": "http://www.chateaukamnik.com/",
    "phone": "+389 2 252 1789",
    "phoneUnformatted": "+38922521789",
    "location": {
      "lat": 42.0077507,
      "lng": 21.4902834
    },
    "plusCode": "2F5R+44 Skopje, North Macedonia"
  },
  {
    "title": "Tristo",
    "categoryName": "Winery",
    "address": "QQQR+GCP, Otovica Sujaklari, Sojaklari, North Macedonia",
    "neighborhood": null,
    "street": "QQQR+GCP, Otovica Sujaklari",
    "city": "Sojaklari",
    "postalCode": null,
    "state": null,
    "countryCode": "MK",
    "website": null,
    "phone": "+389 43 212 065",
    "phoneUnformatted": "+38943212065",
    "location": {
      "lat": 41.7888443,
      "lng": 21.7910901
    },
    "plusCode": null
  },
  {
    "title": "Kocev Family Wines",
    "categoryName": "Winery",
    "address": "Prohor Pcinski, Veles, North Macedonia",
    "neighborhood": null,
    "street": "Prohor Pcinski",
    "city": "Veles",
    "postalCode": null,
    "state": null,
    "countryCode": "MK",
    "website": null,
    "phone": "+389 72 245 483",
    "phoneUnformatted": "+38972245483",
    "location": {
      "lat": 41.7096692,
      "lng": 21.787771
    },
    "plusCode": "PQ5Q+V4 Veles, North Macedonia"
  },
  {
    "title": "Winery \"Chateau Sopot\"",
    "categoryName": "Winery",
    "address": "MK, Veles 1400, North Macedonia",
    "neighborhood": null,
    "street": "MK",
    "city": "Veles",
    "postalCode": "1400",
    "state": null,
    "countryCode": "MK",
    "website": "https://www.facebook.com/chateausopotmacedonia/",
    "phone": "+389 78 663 300",
    "phoneUnformatted": "+38978663300",
    "location": {
      "lat": 41.7777559,
      "lng": 21.7409903
    },
    "plusCode": "QPHR+49 Veles, North Macedonia"
  },
  {
    "title": "OldSchoolWinery",
    "categoryName": "Winery",
    "address": "Lake Mladost Veles MK, 1400, North Macedonia",
    "neighborhood": null,
    "street": "Lake Mladost Veles MK",
    "city": null,
    "postalCode": "1400",
    "state": null,
    "countryCode": "MK",
    "website": "https://m.facebook.com/OldSchoolWinery2020/",
    "phone": "+389 75 355 900",
    "phoneUnformatted": "+38975355900",
    "location": {
      "lat": 41.7736154,
      "lng": 21.767121
    },
    "plusCode": "QQF8+CR Otovitsa, North Macedonia"
  },
  {
    "title": "Kievo Winery",
    "categoryName": "Winery",
    "address": null,
    "neighborhood": null,
    "street": null,
    "city": null,
    "postalCode": null,
    "state": null,
    "countryCode": null,
    "website": null,
    "phone": "+389 78 420 672",
    "phoneUnformatted": "+38978420672",
    "location": {
      "lat": 41.7449384,
      "lng": 22.1913421
    },
    "plusCode": null
  },
  {
    "title": "Winery \"Stefan\"",
    "categoryName": "Winery",
    "address": "Boulevard Macedonia 2, Kavadarci, North Macedonia",
    "neighborhood": null,
    "street": "Boulevard Macedonia 2",
    "city": "Kavadarci",
    "postalCode": null,
    "state": null,
    "countryCode": "MK",
    "website": null,
    "phone": "+389 43 420 412",
    "phoneUnformatted": "+38943420412",
    "location": {
      "lat": 41.438669,
      "lng": 22.001734
    },
    "plusCode": "C2Q2+FM Kavadarci, North Macedonia"
  },
  {
    "title": "Winery \"Venec\"",
    "categoryName": "Winery",
    "address": "s Dolni Disan, Negotino 1443, North Macedonia",
    "neighborhood": null,
    "street": "s Dolni Disan",
    "city": "Negotino",
    "postalCode": "1443",
    "state": null,
    "countryCode": "MK",
    "website": "http://venec.mk/",
    "phone": "+389 43 369 200",
    "phoneUnformatted": "+38943369200",
    "location": {
      "lat": 41.433904,
      "lng": 22.092974
    },
    "plusCode": "C3MV+H5 Dolni Disan, North Macedonia"
  },
  {
    "title": "Jakovlevski winery",
    "categoryName": "Winery",
    "address": "4th of July 16, Kavadarci 1430, North Macedonia",
    "neighborhood": null,
    "street": "4th of July 16",
    "city": "Kavadarci",
    "postalCode": "1430",
    "state": null,
    "countryCode": "MK",
    "website": null,
    "phone": null,
    "phoneUnformatted": null,
    "location": {
      "lat": 41.4380905,
      "lng": 22.0098042
    },
    "plusCode": "C2Q5+6W Kavadarci, North Macedonia"
  },
  {
    "title": "Winery \"Stobi\"",
    "categoryName": "Winery",
    "address": "Avtopat b.b., Gradsko 1400, North Macedonia",
    "neighborhood": null,
    "street": "Avtopat b.b.",
    "city": "Gradsko",
    "postalCode": "1400",
    "state": null,
    "countryCode": "MK",
    "website": "http://stobiwinery.mk/",
    "phone": "+389 78 221 427",
    "phoneUnformatted": "+38978221427",
    "location": {
      "lat": 41.5812326,
      "lng": 21.9362267
    },
    "plusCode": "HWJP+FF Gradsko, North Macedonia"
  },
  {
    "title": "Winery \"Lazar\"",
    "categoryName": "Winery",
    "address": "Naseleno mesto bez ulicen sistem MK, Stobi, Palikura 1422, North Macedonia",
    "neighborhood": null,
    "street": "Naseleno mesto bez ulicen sistem MK, Stobi",
    "city": "Palikura",
    "postalCode": "1422",
    "state": null,
    "countryCode": "MK",
    "website": "http://www.lazarwinery.mk/",
    "phone": "+389 71 281 566",
    "phoneUnformatted": "+38971281566",
    "location": {
      "lat": 41.546456,
      "lng": 21.9724705
    },
    "plusCode": "GXWC+HX Palikura, North Macedonia"
  },
  {
    "title": "Ivanov Winery",
    "categoryName": "Winery",
    "address": "MK MK, Igman 11, Kavadarci 1430, North Macedonia",
    "neighborhood": null,
    "street": "MK MK, Igman 11",
    "city": "Kavadarci",
    "postalCode": "1430",
    "state": null,
    "countryCode": "MK",
    "website": null,
    "phone": "+389 75 350 084",
    "phoneUnformatted": "+38975350084",
    "location": {
      "lat": 41.4358661,
      "lng": 22.0053509
    },
    "plusCode": "C2P4+84 Kavadarci, North Macedonia"
  },
  {
    "title": "Imako Vino Winery",
    "categoryName": "Winery",
    "address": "M5X4+MX, 6th km local road Stip-Radovis MK, Sofilari 2000, North Macedonia",
    "neighborhood": null,
    "street": "M5X4+MX, 6th km local road Stip-Radovis MK",
    "city": "Sofilari",
    "postalCode": "2000",
    "state": null,
    "countryCode": "MK",
    "website": "http://www.imakovino.com.mk/",
    "phone": "+389 32 308 703",
    "phoneUnformatted": "+38932308703",
    "location": {
      "lat": 41.7016794,
      "lng": 22.1561355
    },
    "plusCode": null
  },
  {
    "title": "Winery \"Sarafov\"",
    "categoryName": "Winery",
    "address": "F38M+P87, Negotino, North Macedonia",
    "neighborhood": null,
    "street": "F38M+P87",
    "city": "Negotino",
    "postalCode": null,
    "state": null,
    "countryCode": "MK",
    "website": null,
    "phone": null,
    "phoneUnformatted": null,
    "location": {
      "lat": 41.4667795,
      "lng": 22.0833099
    },
    "plusCode": null
  },
  {
    "title": "Winery \"Bovin\"",
    "categoryName": "Winery",
    "address": "Industriska, Negotino 1440, North Macedonia",
    "neighborhood": null,
    "street": "Industriska",
    "city": "Negotino",
    "postalCode": "1440",
    "state": null,
    "countryCode": "MK",
    "website": "http://www.bovin.mk/",
    "phone": "+389 43 365 322",
    "phoneUnformatted": "+38943365322",
    "location": {
      "lat": 41.4933002,
      "lng": 22.0924896
    },
    "plusCode": "F3VR+8X Negotino, North Macedonia"
  },
  {
    "title": "Royal winery \"Queen Maria\"",
    "categoryName": "Winery",
    "address": "Marshal Tito 63, 1442, North Macedonia",
    "neighborhood": null,
    "street": "Marshal Tito 63, 1442",
    "city": null,
    "postalCode": null,
    "state": null,
    "countryCode": "MK",
    "website": "https://wineryqueenmaria.com/",
    "phone": "+389 70 324 921",
    "phoneUnformatted": "+38970324921",
    "location": {
      "lat": 41.4140987,
      "lng": 22.233366
    },
    "plusCode": "C67M+J8 Demir Kapija, North Macedonia"
  },
  {
    "title": "Winery \"Pivka\"",
    "categoryName": "Winery",
    "address": "107, North Macedonia",
    "neighborhood": null,
    "street": "107",
    "city": null,
    "postalCode": null,
    "state": null,
    "countryCode": "MK",
    "website": "http://www.winerypivka.com.mk/",
    "phone": "+389 43 371 416",
    "phoneUnformatted": "+38943371416",
    "location": {
      "lat": 41.4919487,
      "lng": 22.093001
    },
    "plusCode": "F3RV+Q6 Negotino, North Macedonia"
  },
  {
    "title": "Winery \"Vardarska dolina\"",
    "categoryName": "Winery",
    "address": "G2JC+WW6, Kurija, North Macedonia",
    "neighborhood": null,
    "street": "G2JC+WW6",
    "city": "Kurija",
    "postalCode": null,
    "state": null,
    "countryCode": "MK",
    "website": "http://www.vardarskadolina.mk/",
    "phone": "+389 71 320 867",
    "phoneUnformatted": "+38971320867",
    "location": {
      "lat": 41.5322771,
      "lng": 22.0222751
    },
    "plusCode": null
  },
  {
    "title": "Winery \"Badi\"",
    "categoryName": "Winery",
    "address": "Pere Toshev 3, Kavadartsi 1430, North Macedonia",
    "neighborhood": null,
    "street": "Pere Toshev 3, Kavadartsi 1430",
    "city": "Kavadarci",
    "postalCode": null,
    "state": null,
    "countryCode": "MK",
    "website": "https://www.instagram.com/badiwinery/?hl=en",
    "phone": "+389 77 832 746",
    "phoneUnformatted": "+38977832746",
    "location": {
      "lat": 41.4321479,
      "lng": 22.0061189
    },
    "plusCode": "C2J4+VC Kavadarci, North Macedonia"
  },
  {
    "title": "Family Winery \"Peškov\"",
    "categoryName": "Winery",
    "address": "C2G3+7HV, Kavadarci, North Macedonia",
    "neighborhood": null,
    "street": "C2G3+7HV",
    "city": "Kavadarci",
    "postalCode": null,
    "state": null,
    "countryCode": "MK",
    "website": null,
    "phone": "+389 70 204 799",
    "phoneUnformatted": "+38970204799",
    "location": {
      "lat": 41.4257426,
      "lng": 22.0039158
    },
    "plusCode": null
  },
  {
    "title": "Domaine Lepovo",
    "categoryName": "Winery",
    "address": "Negotino, North Macedonia",
    "neighborhood": null,
    "street": null,
    "city": "Negotino",
    "postalCode": null,
    "state": null,
    "countryCode": "MK",
    "website": "http://www.domainelepovo.com/",
    "phone": "+389 2 318 1741",
    "phoneUnformatted": "+38923181741",
    "location": {
      "lat": 41.5176405,
      "lng": 22.0342244
    },
    "plusCode": "G29M+3M Negotino, North Macedonia"
  },
  {
    "title": "Zaharchev Winery and Distillery",
    "categoryName": "Winery",
    "address": "Kosovska 16, Kavadarci 1430, North Macedonia",
    "neighborhood": null,
    "street": "Kosovska 16",
    "city": "Kavadarci",
    "postalCode": "1430",
    "state": null,
    "countryCode": "MK",
    "website": "https://www.zaharchev.mk/",
    "phone": "+389 70 253 103",
    "phoneUnformatted": "+38970253103",
    "location": {
      "lat": 41.4360468,
      "lng": 22.0048696
    },
    "plusCode": "C2P3+CW Kavadarci, North Macedonia"
  },
  {
    "title": "Winery \"Paragon\"",
    "categoryName": "Winery",
    "address": "G4C8+R4, Krivolak 1440, North Macedonia",
    "neighborhood": null,
    "street": "G4C8+R4",
    "city": "Krivolak",
    "postalCode": "1440",
    "state": null,
    "countryCode": "MK",
    "website": null,
    "phone": "+389 71 302 478",
    "phoneUnformatted": "+38971302478",
    "location": {
      "lat": 41.5220625,
      "lng": 22.1153125
    },
    "plusCode": null
  },
  {
    "title": "Family Winery \"Nalej\"",
    "categoryName": "Winery",
    "address": "Timjanik 1440, North Macedonia",
    "neighborhood": null,
    "street": null,
    "city": "Timjanik",
    "postalCode": "1440",
    "state": null,
    "countryCode": "MK",
    "website": null,
    "phone": "+389 71 963 630",
    "phoneUnformatted": "+38971963630",
    "location": {
      "lat": 41.4688812,
      "lng": 22.0836355
    },
    "plusCode": "F39M+HF Timjanik, North Macedonia"
  },
  {
    "title": "Winery \"Popova kula\"",
    "categoryName": "Winery",
    "address": "Wine Boulevard No.1, Demir Kapija 1442, North Macedonia",
    "neighborhood": null,
    "street": "Wine Boulevard No.1",
    "city": "Demir Kapija",
    "postalCode": "1442",
    "state": null,
    "countryCode": "MK",
    "website": "http://www.popovakula.com.mk/",
    "phone": "+389 76 432 630",
    "phoneUnformatted": "+38976432630",
    "location": {
      "lat": 41.410885,
      "lng": 22.226565
    },
    "plusCode": "C66G+9J Demir Kapija, North Macedonia"
  },
  {
    "title": "Family Winery \"Tomov\"",
    "categoryName": "Winery",
    "address": "Timjanik 1440, North Macedonia",
    "neighborhood": null,
    "street": null,
    "city": "Timjanik",
    "postalCode": "1440",
    "state": null,
    "countryCode": "MK",
    "website": "https://family-winery-tomov.business.site/?utm_source=gmb&utm_medium=referral",
    "phone": "+389 76 808 994",
    "phoneUnformatted": "+38976808994",
    "location": {
      "lat": 41.4676689,
      "lng": 22.0844239
    },
    "plusCode": "F39M+3Q Timjanik, North Macedonia"
  },
  {
    "title": "Notkov Winery",
    "categoryName": "Winery",
    "address": "Leninova 35, Negotino, North Macedonia",
    "neighborhood": null,
    "street": "Leninova 35",
    "city": "Negotino",
    "postalCode": null,
    "state": null,
    "countryCode": "MK",
    "website": null,
    "phone": "+389 71 229 766",
    "phoneUnformatted": "+38971229766",
    "location": {
      "lat": 41.48324,
      "lng": 22.0946753
    },
    "plusCode": "F3MV+7V Negotino, North Macedonia"
  },
  {
    "title": "Winery \"Eros\"",
    "categoryName": "Winery",
    "address": "MK, Marshal Tito 59, Marena 1430, North Macedonia",
    "neighborhood": null,
    "street": "MK, Marshal Tito 59",
    "city": "Marena",
    "postalCode": "1430",
    "state": null,
    "countryCode": "MK",
    "website": null,
    "phone": "+389 71 375 795",
    "phoneUnformatted": "+38971375795",
    "location": {
      "lat": 41.4667585,
      "lng": 22.0301764
    },
    "plusCode": "F28J+P3 Marena, North Macedonia"
  },
  {
    "title": "Winery \"Popov\"",
    "categoryName": "Winery",
    "address": "F2RC+JH6, Sopot, North Macedonia",
    "neighborhood": null,
    "street": "F2RC+JH6",
    "city": "Sopot",
    "postalCode": null,
    "state": null,
    "countryCode": "MK",
    "website": "http://popovwinery.com.mk/",
    "phone": "+389 43 551 000",
    "phoneUnformatted": "+38943551000",
    "location": {
      "lat": 41.4915359,
      "lng": 22.0213826
    },
    "plusCode": null
  }]